$GPGGA,145702.00,5043.67370,N,00232.08226,E,1,07,1.19,28.9,M,45.8,M,,*67
$GPGSA,A,3,28,13,05,24,30,15,21,,,,,,2.06,1.19,1.67*00
$GPGSV,3,1,11,05,32,192,26,07,04,068,08,08,07,020,08,13,87,344,18*76
$GPGSV,3,2,11,15,50,294,34,17,01,124,,20,11,324,07,21,09,296,23*77
$GPGSV,3,3,11,24,19,251,22,28,54,088,38,30,34,067,34*43
$GPGLL,5043.67370,N,00232.08226,E,145702.00,A,A*66
$GPRMC,145703.00,A,5043.67117,N,00232.08485,E,10.999,143.90,261218,,,A*55
$GPVTG,143.90,T,,M,10.999,N,20.370,K,A*3C
$GPGGA,145703.00,5043.67117,N,00232.08485,E,1,07,1.19,28.7,M,45.8,M,,*64
$GPGSA,A,3,28,13,05,24,30,15,21,,,,,,2.06,1.19,1.67*00
$GPGSV,3,1,11,05,32,192,26,07,04,068,08,08,07,020,08,13,87,344,18*76
$GPGSV,3,2,11,15,50,294,35,17,01,124,,20,11,324,08,21,09,296,22*78
$GPGSV,3,3,11,24,19,251,19,28,54,088,27,30,34,067,28*48
$GPGLL,5043.67117,N,00232.08485,E,145703.00,A,A*6B
$GPRMC,145704.00,A,5043.66938,N,00232.08872,E,11.525,128.80,261218,,,A*54
$GPVTG,128.80,T,,M,11.525,N,21.345,K,A*3D
$GPGGA,145704.00,5043.66938,N,00232.08872,E,1,08,1.08,28.7,M,45.8,M,,*6C
$GPGSA,A,3,28,13,05,24,20,30,15,21,,,,,1.91,1.08,1.58*03
$GPGSV,3,1,11,05,32,192,31,07,04,068,08,08,07,020,08,13,87,344,23*78
$GPGSV,3,2,11,15,50,294,26,17,01,124,,20,11,324,08,21,09,296,21*79
$GPGSV,3,3,11,24,19,251,29,28,54,088,26,30,34,067,30*43
$GPGLL,5043.66938,N,00232.08872,E,145704.00,A,A*6C
$GPRMC,145705.00,A,5043.66884,N,00232.09359,E,11.943,101.04,261218,,,A*5B
$GPVTG,101.04,T,,M,11.943,N,22.119,K,A*3E
$GPGGA,145705.00,5043.66884,N,00232.09359,E,1,08,1.08,28.7,M,45.8,M,,*68
$GPGSA,A,3,28,13,05,24,20,30,15,21,,,,,1.91,1.08,1.58*03
$GPGSV,3,1,11,05,32,192,33,07,04,068,08,08,07,020,08,13,87,344,31*79
$GPGSV,3,2,11,15,50,294,34,17,01,124,,20,11,324,08,21,09,296,20*7B
$GPGSV,3,3,11,24,19,251,19,28,54,088,32,30,34,067,29*4D
$GPGLL,5043.66884,N,00232.09359,E,145705.00,A,A*68
$GPRMC,145706.00,A,5043.66897,N,00232.09840,E,10.851,92.31,261218,,,A*67
$GPVTG,92.31,T,,M,10.851,N,20.096,K,A*04
$GPGGA,145706.00,5043.66897,N,00232.09840,E,1,08,1.08,28.6,M,45.8,M,,*6B
$GPGSA,A,3,28,13,05,24,20,30,15,21,,,,,1.91,1.08,1.58*03
$GPGSV,3,1,11,05,32,192,27,07,04,068,08,08,07,020,08,13,87,344,31*7C
$GPGSV,3,2,11,15,50,294,31,17,01,124,,20,11,324,08,21,09,296,22*7C
$GPGSV,3,3,11,24,19,251,29,28,54,088,28,30,34,067,33*4E
$GPGLL,5043.66897,N,00232.09840,E,145706.00,A,A*6A
$GPRMC,145707.00,A,5043.66891,N,00232.10262,E,10.293,72.40,261218,,,A*6E
$GPVTG,72.40,T,,M,10.293,N,19.063,K,A*08
$GPGGA,145707.00,5043.66891,N,00232.10262,E,1,07,1.19,28.4,M,45.8,M,,*63
$GPGSA,A,3,28,13,05,24,30,15,21,,,,,,2.05,1.19,1.67*03
$GPGSV,3,1,11,05,32,192,39,07,04,068,08,08,07,020,,13,87,344,32*78
$GPGSV,3,2,11,15,50,294,24,17,01,124,,20,11,324,21,21,09,296,23*72
$GPGSV,3,3,11,24,19,251,27,28,54,088,26,30,34,067,32*4F
$GPGLL,5043.66891,N,00232.10262,E,145707.00,A,A*6F
$GPRMC,145708.00,A,5043.67037,N,00232.10588,E,9.319,60.63,261218,,,A*5E
$GPVTG,60.63,T,,M,9.319,N,17.259,K,A*34
$GPGGA,145708.00,5043.67037,N,00232.10588,E,1,07,1.19,28.1,M,45.8,M,,*6F
$GPGSA,A,3,28,13,05,24,30,15,21,,,,,,2.05,1.19,1.67*03
$GPGSV,3,1,11,05,32,192,33,07,04,068,06,08,07,020,25,13,87,344,32*7B
$GPGSV,3,2,11,15,50,294,26,17,01,124,,20,11,324,19,21,09,296,23*7B
$GPGSV,3,3,11,24,19,251,26,28,54,088,25,30,34,067,28*46
$GPGLL,5043.67037,N,00232.10588,E,145708.00,A,A*66
$GPRMC,145709.00,A,5043.67233,N,00232.10752,E,8.089,31.87,261218,,,A*59
$GPVTG,31.87,T,,M,8.089,N,14.980,K,A*3D
$GPGGA,145709.00,5043.67233,N,00232.10752,E,1,07,1.19,28.1,M,45.8,M,,*6D
$GPGSA,A,3,28,13,05,24,30,15,21,,,,,,2.05,1.19,1.67*03
$GPGSV,3,1,11,05,32,192,32,07,04,068,07,08,07,020,23,13,87,344,32*7D
$GPGSV,3,2,11,15,50,294,28,17,01,124,,20,11,324,16,21,09,296,21*78
$GPGSV,3,3,11,24,19,251,26,28,54,088,27,30,34,067,33*4E
$GPGLL,5043.67233,N,00232.10752,E,145709.00,A,A*64
$GPRMC,145710.00,A,5043.67452,N,00232.10765,E,8.044,18.15,261218,,,A*55
$GPVTG,18.15,T,,M,8.044,N,14.897,K,A*3B
$GPGGA,145710.00,5043.67452,N,00232.10765,E,1,07,1.19,28.1,M,45.8,M,,*60
$GPGSA,A,3,28,13,05,24,30,15,21,,,,,,2.05,1.19,1.67*03
$GPGSV,3,1,11,05,32,192,27,07,04,068,07,08,07,020,19,13,87,344,31*73
$GPGSV,3,2,11,15,50,294,27,17,01,124,,20,11,324,14,21,09,296,18*7F
$GPGSV,3,3,11,24,19,251,26,28,54,088,24,30,34,067,28*47
$GPGLL,5043.67452,N,00232.10765,E,145710.00,A,A*69
$GPRMC,145711.00,A,5043.67640,N,00232.10576,E,7.877,346.99,261218,,,A*6E
$GPVTG,346.99,T,,M,7.877,N,14.587,K,A*0C
$GPGGA,145711.00,5043.67640,N,00232.10576,E,1,08,1.06,28.5,M,45.8,M,,*65
$GPGSA,A,3,28,13,05,24,08,30,15,21,,,,,1.74,1.06,1.38*0A
$GPGSV,3,1,11,05,32,192,28,07,04,068,07,08,07,020,20,13,87,344,30*77
$GPGSV,3,2,11,15,50,294,35,17,01,124,,20,11,324,10,21,09,296,15*75
$GPGSV,3,3,11,24,19,251,30,28,54,088,31,30,34,067,28*44
$GPGLL,5043.67640,N,00232.10576,E,145711.00,A,A*69
$GPRMC,145712.00,A,5043.67749,N,00232.10246,E,8.663,311.37,261218,,,A*63
$GPVTG,311.37,T,,M,8.663,N,16.044,K,A*06
$GPGGA,145712.00,5043.67749,N,00232.10246,E,1,08,1.06,28.4,M,45.8,M,,*6B
$GPGSA,A,3,28,13,05,24,08,30,15,21,,,,,1.74,1.06,1.38*0A
$GPGSV,3,1,11,05,32,192,27,07,04,068,07,08,07,020,22,13,87,344,18*70
$GPGSV,3,2,11,15,50,294,37,17,01,124,,20,11,324,08,21,09,296,10*7B
$GPGSV,3,3,11,24,19,251,25,28,54,088,31,30,34,067,33*4A
$GPGLL,5043.67749,N,00232.10246,E,145712.00,A,A*66
$GPRMC,145713.00,A,5043.67768,N,00232.09851,E,9.903,291.05,261218,,,A*65
$GPVTG,291.05,T,,M,9.903,N,18.340,K,A*0F
$GPGGA,145713.00,5043.67768,N,00232.09851,E,1,07,1.15,28.4,M,45.8,M,,*60
$GPGSA,A,3,28,13,05,24,08,30,15,,,,,,1.84,1.15,1.43*08
$GPGSV,3,1,11,05,32,192,26,07,04,068,,08,07,020,22,13,87,344,23*7E
$GPGSV,3,2,11,15,50,294,32,17,01,124,,20,11,324,08,21,09,296,08*77
$GPGSV,3,3,11,24,19,251,24,28,54,088,30,30,34,067,33*4A
$GPGLL,5043.67768,N,00232.09851,E,145713.00,A,A*60
$GPRMC,145714.00,A,5043.67719,N,00232.09415,E,10.274,268.04,261218,,,A*5C
$GPVTG,268.04,T,,M,10.274,N,19.028,K,A*37
$GPGGA,145714.00,5043.67719,N,00232.09415,E,1,09,0.99,28.6,M,45.8,M,,*64
$GPGSA,A,3,28,13,05,24,08,20,30,15,21,,,,1.70,0.99,1.37*04
$GPGSV,3,1,11,05,32,192,31,07,04,068,,08,06,020,20,13,87,344,24*7C
$GPGSV,3,2,11,15,50,294,30,17,01,124,,20,11,324,16,21,09,296,07*75
$GPGSV,3,3,11,24,19,251,21,28,54,088,23,30,34,067,34*4A
$GPGLL,5043.67719,N,00232.09415,E,145714.00,A,A*6D
$GPRMC,145715.00,A,5043.67605,N,00232.09001,E,10.230,251.71,261218,,,A*58
$GPVTG,251.71,T,,M,10.230,N,18.946,K,A*3F
$GPGGA,145715.00,5043.67605,N,00232.09001,E,1,09,0.99,28.4,M,45.8,M,,*6A
$GPGSA,A,3,28,13,05,24,08,20,30,15,21,,,,1.69,0.99,1.37*0C
$GPGSV,3,1,11,05,32,192,31,07,04,068,,08,06,020,18,13,87,344,24*77
$GPGSV,3,2,11,15,50,294,29,17,01,124,,20,11,324,16,21,09,296,07*7D
$GPGSV,3,3,11,24,19,251,25,28,54,088,26,30,34,067,29*47
$GPGLL,5043.67605,N,00232.09001,E,145715.00,A,A*61
$GPRMC,145716.00,A,5043.67440,N,00232.08635,E,10.306,240.79,261218,,,A*54
$GPVTG,240.79,T,,M,10.306,N,19.086,K,A*37
$GPGGA,145716.00,5043.67440,N,00232.08635,E,1,08,1.03,27.7,M,45.8,M,,*65
$GPGSA,A,3,28,13,05,24,08,20,30,15,,,,,1.74,1.03,1.40*01
$GPGSV,3,1,11,05,32,192,34,07,04,068,18,08,06,020,17,13,87,344,23*73
$GPGSV,3,2,11,15,50,294,29,17,01,124,,20,11,324,16,21,09,296,08*72
$GPGSV,3,3,11,24,19,251,25,28,54,088,32,30,34,067,29*42
$GPGLL,5043.67440,N,00232.08635,E,145716.00,A,A*61
$GPRMC,145717.00,A,5043.67215,N,00232.08360,E,10.056,224.71,261218,,,A*5A
$GPVTG,224.71,T,,M,10.056,N,18.623,K,A*33
$GPGGA,145717.00,5043.67215,N,00232.08360,E,1,09,0.99,25.8,M,45.8,M,,*69
$GPGSA,A,3,28,13,05,24,08,20,30,15,21,,,,1.69,0.99,1.37*0C
$GPGSV,3,1,11,05,32,192,35,07,04,068,17,08,06,020,15,13,87,344,22*7E
$GPGSV,3,2,11,15,50,294,32,17,01,124,,20,11,324,16,21,09,296,21*73
$GPGSV,3,3,11,24,19,251,25,28,54,088,25,30,34,067,29*44
$GPGLL,5043.67215,N,00232.08360,E,145717.00,A,A*63
$GPRMC,145718.00,A,5043.66941,N,00232.08103,E,12.213,214.93,261218,,,A*57
$GPVTG,214.93,T,,M,12.213,N,22.619,K,A*3D
$GPGGA,145718.00,5043.66941,N,00232.08103,E,1,09,0.99,24.7,M,45.8,M,,*64
$GPGSA,A,3,28,13,05,24,08,20,30,15,21,,,,1.69,0.99,1.37*0C
$GPGSV,3,1,11,05,32,192,33,07,04,068,15,08,06,020,14,13,87,344,25*7C
$GPGSV,3,2,11,15,50,294,28,17,01,124,,20,11,324,16,21,09,296,23*7A
$GPGSV,3,3,11,24,19,251,22,28,54,088,26,30,34,067,28*41
$GPGLL,5043.66941,N,00232.08103,E,145718.00,A,A*60
$GPRMC,145719.00,A,5043.66620,N,00232.07777,E,14.386,215.80,261218,,,A*5C
$GPVTG,215.80,T,,M,14.386,N,26.643,K,A*3E
$GPGGA,145719.00,5043.66620,N,00232.07777,E,1,08,1.06,23.8,M,45.8,M,,*69
$GPGSA,A,3,28,13,05,24,08,30,15,21,,,,,1.74,1.06,1.38*0A
$GPGSV,3,1,11,05,32,192,23,07,04,068,12,08,06,020,10,13,88,349,25*7C
$GPGSV,3,2,11,15,50,294,28,17,01,124,,20,11,324,17,21,09,296,22*7A
$GPGSV,3,3,11,24,19,251,18,28,54,088,26,30,34,067,33*42
$GPGLL,5043.66620,N,00232.07777,E,145719.00,A,A*63
$GPRMC,145720.00,A,5043.66320,N,00232.07280,E,16.125,228.58,261218,,,A*5C
$GPVTG,228.58,T,,M,16.125,N,29.863,K,A*3F
$GPGGA,145720.00,5043.66320,N,00232.07280,E,1,08,1.06,22.6,M,45.8,M,,*64
$GPGSA,A,3,28,13,05,24,08,30,15,21,,,,,1.74,1.06,1.38*0A
$GPGSV,3,1,11,05,32,192,30,07,04,068,12,08,06,020,11,13,88,349,24*7E
$GPGSV,3,2,11,15,50,294,33,17,01,124,,20,11,324,18,21,09,296,19*77
$GPGSV,3,3,11,24,19,251,16,28,54,088,31,30,34,067,28*40
$GPGLL,5043.66320,N,00232.07280,E,145720.00,A,A*61
$GPRMC,145721.00,A,5043.65984,N,00232.06743,E,17.542,225.16,261218,,,A*52
$GPVTG,225.16,T,,M,17.542,N,32.487,K,A*30
$GPGGA,145721.00,5043.65984,N,00232.06743,E,1,08,1.06,20.9,M,45.8,M,,*64
$GPGSA,A,3,28,13,05,24,08,30,15,21,,,,,1.74,1.06,1.38*0A
$GPGSV,3,1,11,05,32,192,23,07,04,068,12,08,06,020,11,13,88,349,22*7A
$GPGSV,3,2,11,15,50,294,28,17,01,124,,20,11,324,16,21,09,296,16*7C
$GPGSV,3,3,11,24,19,251,13,28,54,088,29,30,34,067,27*43
$GPGLL,5043.65984,N,00232.06743,E,145721.00,A,A*6C
$GPRMC,145722.00,A,5043.65668,N,00232.06203,E,16.470,228.81,261218,,,A*5F
$GPVTG,228.81,T,,M,16.470,N,30.502,K,A*3C
$GPGGA,145722.00,5043.65668,N,00232.06203,E,1,07,1.19,20.4,M,45.8,M,,*67
$GPGSA,A,3,28,13,05,24,30,15,21,,,,,,2.05,1.19,1.67*03
$GPGSV,3,1,11,05,32,192,23,07,04,068,11,08,06,020,09,13,88,349,21*73
$GPGSV,3,2,11,15,50,294,28,17,01,124,,20,11,324,13,21,09,296,12*7D
$GPGSV,3,3,11,24,19,251,10,28,54,088,30,30,34,067,24*4B
$GPGLL,5043.65668,N,00232.06203,E,145722.00,A,A*63
$GPRMC,145723.00,A,5043.65288,N,00232.05631,E,18.817,224.66,261218,,,A*54
$GPVTG,224.66,T,,M,18.817,N,34.849,K,A*3C
$GPGGA,145723.00,5043.65288,N,00232.05631,E,1,06,1.42,19.5,M,45.8,M,,*6E
$GPGSA,A,3,28,13,05,24,30,15,,,,,,,2.58,1.42,2.15*00
$GPGSV,3,1,11,05,32,192,33,07,04,068,10,08,06,020,08,13,88,349,21*72
$GPGSV,3,2,11,15,50,294,30,17,02,123,,20,11,324,09,21,09,296,09*71
$GPGSV,3,3,11,24,19,251,10,28,54,088,31,30,34,067,24*4A
$GPGLL,5043.65288,N,00232.05631,E,145723.00,A,A*6E
$GPRMC,145724.00,A,5043.64897,N,00232.05051,E,19.373,223.92,261218,,,A*52
$GPVTG,223.92,T,,M,19.373,N,35.878,K,A*3B
$GPGGA,145724.00,5043.64897,N,00232.05051,E,1,06,1.42,19.0,M,45.8,M,,*69
$GPGSA,A,3,28,13,05,24,30,15,,,,,,,2.58,1.42,2.15*00
$GPGSV,3,1,11,05,32,192,29,07,04,068,10,08,06,020,08,13,88,349,20*78
$GPGSV,3,2,11,15,50,294,22,17,02,123,,20,11,324,09,21,09,296,09*72
$GPGSV,3,3,11,24,19,251,10,28,54,088,31,30,34,067,24*4A
$GPGLL,5043.64897,N,00232.05051,E,145724.00,A,A*6C
$GPRMC,145725.00,A,5043.64495,N,00232.04471,E,19.224,223.59,261218,,,A*5E
$GPVTG,223.59,T,,M,19.224,N,35.603,K,A*3D
$GPGGA,145725.00,5043.64495,N,00232.04471,E,1,06,1.42,19.2,M,45.8,M,,*63
$GPGSA,A,3,28,13,05,24,30,15,,,,,,,2.58,1.42,2.15*00
$GPGSV,3,1,11,05,32,192,33,07,04,068,,08,06,020,,13,88,349,19*70
$GPGSV,3,2,11,15,50,294,29,17,02,123,,20,11,324,,21,09,296,*79
$GPGSV,3,3,11,24,19,251,10,28,54,088,32,30,34,067,30*4C
$GPGLL,5043.64495,N,00232.04471,E,145725.00,A,A*64
$GPRMC,145726.00,A,5043.64082,N,00232.03937,E,19.110,220.88,261218,,,A*5C
$GPVTG,220.88,T,,M,19.110,N,35.391,K,A*38
$GPGGA,145726.00,5043.64082,N,00232.03937,E,1,06,1.42,19.1,M,45.8,M,,*69
$GPGSA,A,3,28,13,05,24,30,15,,,,,,,2.58,1.42,2.15*00
$GPGSV,3,1,11,05,32,192,28,07,04,068,,08,06,020,,13,88,349,19*7A
$GPGSV,3,2,11,15,50,294,20,17,02,123,,20,11,324,,21,09,296,*70
$GPGSV,3,3,11,24,19,251,12,28,54,088,31,30,34,067,23*4F
$GPGLL,5043.64082,N,00232.03937,E,145726.00,A,A*6D
$GPRMC,145727.00,A,5043.63681,N,00232.03401,E,18.767,221.76,261218,,,A*50
$GPVTG,221.76,T,,M,18.767,N,34.756,K,A*31
$GPGGA,145727.00,5043.63681,N,00232.03401,E,1,06,1.42,18.7,M,45.8,M,,*65
$GPGSA,A,3,28,13,05,24,30,15,,,,,,,2.58,1.42,2.15*00
$GPGSV,3,1,11,05,32,192,27,07,04,068,,08,06,020,,13,88,349,20*7F
$GPGSV,3,2,11,15,50,294,22,17,02,123,,20,11,324,,21,09,295,*71
$GPGSV,3,3,11,24,19,251,12,28,54,088,34,30,34,067,24*4D
$GPGLL,5043.63681,N,00232.03401,E,145727.00,A,A*66
$GPRMC,145728.00,A,5043.63299,N,00232.02868,E,18.537,222.10,261218,,,A*54
$GPVTG,222.10,T,,M,18.537,N,34.331,K,A*30
$GPGGA,145728.00,5043.63299,N,00232.02868,E,1,06,1.42,18.0,M,45.8,M,,*62
$GPGSA,A,3,28,13,05,24,30,15,,,,,,,2.58,1.42,2.15*00
$GPGSV,3,1,11,05,32,192,32,07,04,068,,08,06,020,,13,88,349,22*79
$GPGSV,3,2,11,15,50,294,21,17,02,123,,20,11,324,,21,09,295,*72
$GPGSV,3,3,11,24,19,251,12,28,54,088,29,30,34,067,24*41
$GPGLL,5043.63299,N,00232.02868,E,145728.00,A,A*66
$GPRMC,145729.00,A,5043.62939,N,00232.02276,E,18.201,224.57,261218,,,A*57
$GPVTG,224.57,T,,M,18.201,N,33.709,K,A*3F
$GPGGA,145729.00,5043.62939,N,00232.02276,E,1,06,1.42,18.1,M,45.8,M,,*67
$GPGSA,A,3,28,13,05,24,30,15,,,,,,,2.58,1.42,2.15*00
$GPGSV,3,1,11,05,32,192,32,07,04,068,,08,06,020,,13,88,349,21*7A
$GPGSV,3,2,11,15,50,294,33,17,02,123,,20,11,324,26,21,09,295,*75
$GPGSV,3,3,11,24,19,251,12,28,54,088,32,30,34,067,24*4B
$GPGLL,5043.62939,N,00232.02276,E,145729.00,A,A*62
$GPRMC,145730.00,A,5043.62557,N,00232.01709,E,17.937,224.74,261218,,,A*55
$GPVTG,224.74,T,,M,17.937,N,33.219,K,A*3B
$GPGGA,145730.00,5043.62557,N,00232.01709,E,1,06,1.42,19.2,M,45.8,M,,*67
$GPGSA,A,3,28,13,05,24,30,15,,,,,,,2.58,1.42,2.15*00
$GPGSV,3,1,11,05,32,192,35,07,04,068,,08,06,020,,13,88,349,22*7E
$GPGSV,3,2,11,15,50,294,24,17,02,123,,20,11,324,14,21,09,295,*72
$GPGSV,3,3,11,24,19,252,12,28,54,088,31,30,34,067,25*4A
$GPGLL,5043.62557,N,00232.01709,E,145730.00,A,A*60
$GPRMC,145731.00,A,5043.62211,N,00232.01147,E,17.444,225.83,261218,,,A*5D
$GPVTG,225.83,T,,M,17.444,N,32.305,K,A*36
$GPGGA,145731.00,5043.62211,N,00232.01147,E,1,05,1.60,19.1,M,45.8,M,,*6F
$GPGSA,A,3,28,13,05,30,15,,,,,,,,3.36,1.60,2.95*07
$GPGSV,3,1,11,05,32,192,30,07,04,068,,08,06,020,,13,88,349,23*7A
$GPGSV,3,2,11,15,50,294,21,17,02,123,,20,11,324,12,21,09,295,*71
$GPGSV,3,3,11,24,19,252,,28,54,088,31,30,34,067,26*4A
$GPGLL,5043.62211,N,00232.01147,E,145731.00,A,A*68
$GPRMC,145732.00,A,5043.61859,N,00232.00642,E,17.374,223.03,261218,,,A*52
$GPVTG,223.03,T,,M,17.374,N,32.176,K,A*3A
$GPGGA,145732.00,5043.61859,N,00232.00642,E,1,05,1.60,18.7,M,45.8,M,,*6D
$GPGSA,A,3,28,13,05,30,15,,,,,,,,3.36,1.60,2.95*07
$GPGSV,3,1,11,05,32,192,30,07,04,068,,08,06,020,,13,88,349,22*7B
$GPGSV,3,2,11,15,50,294,20,17,02,123,,20,11,324,12,21,09,295,*70
$GPGSV,3,3,11,24,19,252,,28,54,088,30,30,34,067,31*4D
$GPGLL,5043.61859,N,00232.00642,E,145732.00,A,A*6D
$GPRMC,145733.00,A,5043.61526,N,00232.00166,E,15.465,223.62,261218,,,A*55
$GPVTG,223.62,T,,M,15.465,N,28.642,K,A*33
$GPGGA,145733.00,5043.61526,N,00232.00166,E,1,05,1.60,18.8,M,45.8,M,,*67
$GPGSA,A,3,28,13,05,30,15,,,,,,,,3.36,1.60,2.95*07
$GPGSV,3,1,11,05,32,192,33,07,04,068,,08,06,020,,13,88,349,21*7B
$GPGSV,3,2,11,15,50,294,18,17,02,123,,20,11,324,12,21,09,295,*7B
$GPGSV,3,3,11,24,19,252,,28,54,088,28,30,34,067,32*47
$GPGLL,5043.61526,N,00232.00166,E,145733.00,A,A*68
$GPRMC,145734.00,A,5043.61224,N,00231.99806,E,12.891,221.65,261218,,,A*5E
$GPVTG,221.65,T,,M,12.891,N,23.875,K,A*37
$GPGGA,145734.00,5043.61224,N,00231.99806,E,1,06,1.20,18.3,M,45.8,M,,*65
$GPGSA,A,3,28,13,05,20,30,15,,,,,,,2.12,1.20,1.74*0A
$GPGSV,3,1,11,05,32,192,29,07,04,068,,08,06,020,,13,88,349,22*73
$GPGSV,3,2,11,15,50,294,17,17,02,123,,20,11,324,12,21,09,295,*74
$GPGSV,3,3,11,24,19,252,,28,54,088,31,30,34,067,27*4B
$GPGLL,5043.61224,N,00231.99806,E,145734.00,A,A*66
$GPRMC,145735.00,A,5043.60994,N,00231.99561,E,9.748,214.66,261218,,,A*66
$GPVTG,214.66,T,,M,9.748,N,18.054,K,A*00
$GPGGA,145735.00,5043.60994,N,00231.99561,E,1,06,1.20,16.1,M,45.8,M,,*65
$GPGSA,A,3,28,13,05,20,30,15,,,,,,,2.12,1.20,1.74*0A
$GPGSV,3,1,11,05,32,192,27,07,04,068,,08,06,020,,13,88,349,23*7C
$GPGSV,3,2,11,15,50,294,18,17,02,123,,20,11,324,12,21,09,295,*7B
$GPGSV,3,3,11,24,19,252,,28,54,088,30,30,34,067,28*45
$GPGLL,5043.60994,N,00231.99561,E,145735.00,A,A*6A
$GPRMC,145736.00,A,5043.60890,N,00231.99472,E,3.410,212.95,261218,,,A*6D
$GPVTG,212.95,T,,M,3.410,N,6.316,K,A*34
$GPGGA,145736.00,5043.60890,N,00231.99472,E,1,06,1.20,17.4,M,45.8,M,,*64
$GPGSA,A,3,28,13,05,20,30,15,,,,,,,2.12,1.20,1.74*0A
$GPGSV,3,1,11,05,32,192,28,07,04,068,,08,06,020,,13,88,349,25*75
$GPGSV,3,2,11,15,50,294,19,17,02,123,,20,11,324,12,21,09,295,*7A
$GPGSV,3,3,11,24,19,252,,28,54,088,34,30,34,067,28*41
$GPGLL,5043.60890,N,00231.99472,E,145736.00,A,A*6F
$GPRMC,145737.00,A,5043.60843,N,00231.99451,E,1.788,,261218,,,A*70
$GPVTG,,T,,M,1.788,N,3.311,K,A*25
$GPGGA,145737.00,5043.60843,N,00231.99451,E,1,05,1.60,17.2,M,45.8,M,,*6B
$GPGSA,A,3,28,13,05,30,15,,,,,,,,3.36,1.60,2.95*07
$GPGSV,3,1,11,05,32,192,30,07,04,068,,08,06,020,,13,88,349,26*7F
$GPGSV,3,2,11,15,50,294,19,17,02,123,,20,11,324,,21,09,295,*79
$GPGSV,3,3,11,24,19,252,,28,54,088,29,30,34,067,33*47
$GPGLL,5043.60843,N,00231.99451,E,145737.00,A,A*61
$GPRMC,145738.00,A,5043.60821,N,00231.99433,E,0.361,,261218,,,A*7D
$GPVTG,,T,,M,0.361,N,0.669,K,A*2E
$GPGGA,145738.00,5043.60821,N,00231.99433,E,1,05,1.60,17.7,M,45.8,M,,*61
$GPGSA,A,3,28,13,05,30,15,,,,,,,,3.36,1.60,2.95*07
$GPGSV,3,1,11,05,32,192,33,07,04,068,13,08,06,020,,13,88,349,25*7D
$GPGSV,3,2,11,15,50,294,19,17,02,123,,20,11,324,,21,09,295,*79
$GPGSV,3,3,11,24,19,252,,28,54,088,31,30,34,067,32*4F
$GPGLL,5043.60821,N,00231.99433,E,145738.00,A,A*6E
$GPRMC,145739.00,A,5043.60805,N,00231.99422,E,0.340,,261218,,,A*79
$GPVTG,,T,,M,0.340,N,0.630,K,A*21
$GPGGA,145739.00,5043.60805,N,00231.99422,E,1,05,1.60,18.0,M,45.8,M,,*6E
$GPGSA,A,3,28,13,05,30,15,,,,,,,,3.36,1.60,2.95*07
$GPGSV,3,1,11,05,32,192,32,07,04,068,09,08,06,020,,13,88,349,25*77
$GPGSV,3,2,11,15,50,294,15,17,02,123,,20,11,324,,21,09,295,*75
$GPGSV,3,3,11,24,19,252,06,28,54,088,32,30,34,067,32*4A
$GPGLL,5043.60805,N,00231.99422,E,145739.00,A,A*69
$GPRMC,145740.00,A,5043.60793,N,00231.99435,E,0.183,,261218,,,A*7C
$GPVTG,,T,,M,0.183,N,0.339,K,A*20
$GPGGA,145740.00,5043.60793,N,00231.99435,E,1,05,1.60,18.3,M,45.8,M,,*65
$GPGSA,A,3,28,13,05,30,15,,,,,,,,3.36,1.60,2.95*07
$GPGSV,3,1,11,05,32,192,32,07,04,068,08,08,06,020,,13,88,349,25*76
$GPGSV,3,2,11,15,50,294,14,17,02,123,,20,11,324,,21,09,295,*74
$GPGSV,3,3,11,24,19,252,07,28,54,088,32,30,34,067,31*48
$GPGLL,5043.60793,N,00231.99435,E,145740.00,A,A*61
$GPRMC,145741.00,A,5043.60777,N,00231.99449,E,0.097,,261218,,,A*78
$GPVTG,,T,,M,0.097,N,0.180,K,A*24
$GPGGA,145741.00,5043.60777,N,00231.99449,E,1,05,1.60,18.5,M,45.8,M,,*63
$GPGSA,A,3,28,13,05,30,15,,,,,,,,3.36,1.60,2.95*07
$GPGSV,3,1,11,05,32,192,31,07,04,068,08,08,06,020,,13,88,349,24*74
$GPGSV,3,2,11,15,50,294,14,17,02,123,,20,11,324,,21,09,295,*74
$GPGSV,3,3,11,24,19,252,11,28,54,088,32,30,34,067,32*4C
$GPGLL,5043.60777,N,00231.99449,E,145741.00,A,A*61
$GPRMC,145742.00,A,5043.60759,N,00231.99461,E,0.077,,261218,,,A*73
$GPVTG,,T,,M,0.077,N,0.143,K,A*25
$GPGGA,145742.00,5043.60759,N,00231.99461,E,1,05,1.60,18.7,M,45.8,M,,*64
$GPGSA,A,3,28,13,05,30,15,,,,,,,,3.36,1.60,2.95*07
$GPGSV,3,1,11,05,32,192,32,07,04,068,08,08,06,020,,13,88,349,24*77
$GPGSV,3,2,11,15,50,294,15,17,02,123,,20,11,324,,21,09,295,*75
$GPGSV,3,3,11,24,19,252,15,28,54,088,33,30,34,067,32*49
$GPGLL,5043.60759,N,00231.99461,E,145742.00,A,A*64
$GPRMC,145743.00,A,5043.60774,N,00231.99420,E,0.155,,261218,,,A*79
$GPVTG,,T,,M,0.155,N,0.286,K,A*2E
$GPGGA,145743.00,5043.60774,N,00231.99420,E,1,05,1.76,18.6,M,45.8,M,,*69
$GPGSA,A,3,28,13,05,24,30,,,,,,,,2.84,1.76,2.22*06
$GPGSV,3,1,11,05,32,192,31,07,04,068,,08,06,020,,13,88,349,24*7C
$GPGSV,3,2,11,15,50,294,,17,02,123,,20,11,324,,21,09,295,*71
$GPGSV,3,3,11,24,19,252,16,28,54,088,32,30,34,067,32*4B
$GPGLL,5043.60774,N,00231.99420,E,145743.00,A,A*6F
$GPRMC,145744.00,A,5043.60771,N,00231.99405,E,0.512,,261218,,,A*7B
$GPVTG,,T,,M,0.512,N,0.947,K,A*2F
$GPGGA,145744.00,5043.60771,N,00231.99405,E,1,05,1.76,18.4,M,45.8,M,,*6E
$GPGSA,A,3,28,13,05,24,30,,,,,,,,2.84,1.76,2.22*06
$GPGSV,3,1,11,05,32,192,32,07,04,068,,08,06,020,,13,88,349,23*78
$GPGSV,3,2,11,15,50,294,,17,02,123,,20,11,324,,21,09,295,*71
$GPGSV,3,3,11,24,19,252,16,28,54,088,32,30,34,067,32*4B
$GPGLL,5043.60771,N,00231.99405,E,145744.00,A,A*6A
$GPRMC,145745.00,A,5043.60783,N,00231.99370,E,0.091,,261218,,,A*7C
$GPVTG,,T,,M,0.091,N,0.168,K,A*24
$GPGGA,145745.00,5043.60783,N,00231.99370,E,1,05,1.76,18.1,M,45.8,M,,*62
$GPGSA,A,3,28,13,05,24,30,,,,,,,,2.84,1.76,2.22*06
$GPGSV,3,1,11,05,32,192,31,07,04,068,,08,06,020,,13,88,349,23*7B
$GPGSV,3,2,11,15,50,294,,17,02,123,,20,11,324,,21,09,295,*71
$GPGSV,3,3,11,24,19,252,15,28,54,088,33,30,34,067,31*4A
$GPGLL,5043.60783,N,00231.99370,E,145745.00,A,A*63
$GPRMC,145746.00,A,5043.60756,N,00231.99406,E,0.452,,261218,,,A*7A
$GPVTG,,T,,M,0.452,N,0.837,K,A*2C
$GPGGA,145746.00,5043.60756,N,00231.99406,E,1,05,1.76,18.2,M,45.8,M,,*6C
$GPGSA,A,3,28,13,05,24,30,,,,,,,,2.84,1.76,2.22*06
$GPGSV,3,1,11,05,32,192,31,07,04,068,,08,06,020,,13,88,349,23*7B
$GPGSV,3,2,11,15,50,294,,17,02,123,,20,11,324,,21,09,295,*71
$GPGSV,3,3,11,24,19,252,15,28,54,088,32,30,34,067,32*48
$GPGLL,5043.60756,N,00231.99406,E,145746.00,A,A*6E
$GPRMC,145747.00,A,5043.60769,N,00231.99368,E,0.307,,261218,,,A*7F
$GPVTG,,T,,M,0.307,N,0.568,K,A*2C
$GPGGA,145747.00,5043.60769,N,00231.99368,E,1,05,1.76,18.0,M,45.8,M,,*6C
$GPGSA,A,3,28,13,05,24,30,,,,,,,,2.84,1.76,2.22*06
$GPGSV,3,1,11,05,32,192,31,07,04,068,,08,06,020,,13,88,349,23*7B
$GPGSV,3,2,11,15,50,294,,17,02,123,,20,11,324,,21,09,295,*71
$GPGSV,3,3,11,24,19,252,15,28,54,088,32,30,34,067,31*4B
$GPGLL,5043.60769,N,00231.99368,E,145747.00,A,A*6C
$GPRMC,145748.00,A,5043.60782,N,00231.99338,E,0.290,,261218,,,A*7F
$GPVTG,,T,,M,0.290,N,0.537,K,A*29
$GPGGA,145748.00,5043.60782,N,00231.99338,E,1,05,1.76,18.1,M,45.8,M,,*62
$GPGSA,A,3,28,13,05,24,30,,,,,,,,2.84,1.76,2.22*06
$GPGSV,3,1,11,05,32,192,31,07,04,068,,08,06,020,,13,88,349,23*7B
$GPGSV,3,2,11,15,50,294,16,17,02,123,,20,11,324,,21,09,295,*76
$GPGSV,3,3,11,24,19,252,17,28,54,088,32,30,34,067,32*4A
$GPGLL,5043.60782,N,00231.99338,E,145748.00,A,A*63
$GPRMC,145749.00,A,5043.60785,N,00231.99311,E,0.156,,261218,,,A*7B
$GPVTG,,T,,M,0.156,N,0.289,K,A*22
$GPGGA,145749.00,5043.60785,N,00231.99311,E,1,05,1.76,18.1,M,45.8,M,,*6F
$GPGSA,A,3,28,13,05,24,30,,,,,,,,2.84,1.76,2.22*06
$GPGSV,3,1,11,05,32,192,30,07,04,068,,08,06,020,,13,88,349,25*7C
$GPGSV,3,2,11,15,50,294,13,17,02,123,,20,11,324,,21,09,295,*73
$GPGSV,3,3,11,24,19,252,17,28,54,088,32,30,34,067,31*49
$GPGLL,5043.60785,N,00231.99311,E,145749.00,A,A*6E
$GPRMC,145750.00,A,5043.60778,N,00231.99242,E,1.617,,261218,,,A*75
$GPVTG,,T,,M,1.617,N,2.994,K,A*24
$GPGGA,145750.00,5043.60778,N,00231.99242,E,1,05,1.76,18.3,M,45.8,M,,*60
$GPGSA,A,3,28,13,05,24,30,,,,,,,,2.84,1.76,2.22*06
$GPGSV,3,1,11,05,32,192,30,07,04,068,19,08,06,020,,13,88,349,23*72
$GPGSV,3,2,11,15,50,294,14,17,02,123,,20,11,324,,21,09,295,*74
$GPGSV,3,3,11,24,19,252,14,28,54,088,33,30,34,067,33*49
$GPGLL,5043.60778,N,00231.99242,E,145750.00,A,A*63
$GPRMC,145751.00,A,5043.60695,N,00231.99199,E,3.864,,261218,,,A*7B
$GPVTG,,T,,M,3.864,N,7.155,K,A*2C
$GPGGA,145751.00,5043.60695,N,00231.99199,E,1,05,1.76,17.9,M,45.8,M,,*63
$GPGSA,A,3,28,13,05,24,30,,,,,,,,2.83,1.76,2.22*01
$GPGSV,3,1,11,05,32,192,33,07,04,068,17,08,06,020,,13,88,349,21*7D
$GPGSV,3,2,11,15,50,294,17,17,02,123,,20,11,324,,21,09,295,*77
$GPGSV,3,3,11,24,19,252,12,28,54,088,36,30,34,067,27*4F
$GPGLL,5043.60695,N,00231.99199,E,145751.00,A,A*65
$GPRMC,145752.00,A,5043.60545,N,00231.99099,E,6.257,215.47,261218,,,A*63
$GPVTG,215.47,T,,M,6.257,N,11.589,K,A*0A
$GPGGA,145752.00,5043.60545,N,00231.99099,E,1,06,1.42,17.7,M,45.8,M,,*65
$GPGSA,A,3,28,13,05,24,30,15,,,,,,,2.58,1.42,2.15*00
$GPGSV,3,1,11,05,32,192,29,07,04,068,16,08,06,020,,13,88,349,18*7D
$GPGSV,3,2,11,15,50,294,18,17,02,123,,20,11,324,,21,09,295,*78
$GPGSV,3,3,11,24,19,252,12,28,54,088,33,30,34,067,27*4A
$GPGLL,5043.60545,N,00231.99099,E,145752.00,A,A*69
$GPRMC,145753.00,A,5043.60298,N,00231.98938,E,9.465,216.34,261218,,,A*69
$GPVTG,216.34,T,,M,9.465,N,17.529,K,A*09
$GPGGA,145753.00,5043.60298,N,00231.98938,E,1,06,1.42,18.3,M,45.8,M,,*6B
$GPGSA,A,3,28,13,05,24,30,15,,,,,,,2.58,1.42,2.15*00
$GPGSV,3,1,11,05,32,192,30,07,04,068,14,08,06,020,,13,88,349,16*79
$GPGSV,3,2,11,15,50,294,36,17,02,123,,20,11,324,,21,09,295,*74
$GPGSV,3,3,11,24,19,252,13,28,54,088,33,30,34,067,35*48
$GPGLL,5043.60298,N,00231.98938,E,145753.00,A,A*6C
$GPRMC,145754.00,A,5043.60128,N,00231.98599,E,9.703,221.90,261218,,,A*68
$GPVTG,221.90,T,,M,9.703,N,17.970,K,A*00
$GPGGA,145754.00,5043.60128,N,00231.98599,E,1,06,1.42,18.8,M,45.8,M,,*68
$GPGSA,A,3,28,13,05,24,30,15,,,,,,,2.58,1.42,2.15*00
$GPGSV,3,1,11,05,32,192,30,07,04,068,13,08,06,020,,13,88,349,18*70
$GPGSV,3,2,11,15,50,294,35,17,02,123,,20,11,324,25,21,09,295,*70
$GPGSV,3,3,11,24,19,252,13,28,54,088,31,30,34,067,31*4E
$GPGLL,5043.60128,N,00231.98599,E,145754.00,A,A*64
$GPRMC,145755.00,A,5043.59993,N,00231.98187,E,9.968,223.00,261218,,,A*68
$GPVTG,223.00,T,,M,9.968,N,18.461,K,A*0A
$GPGGA,145755.00,5043.59993,N,00231.98187,E,1,06,1.42,19.1,M,45.8,M,,*68
$GPGSA,A,3,28,13,05,24,30,15,,,,,,,2.58,1.42,2.15*00
$GPGSV,3,1,11,05,32,192,31,07,04,068,12,08,06,020,,13,88,349,18*70
$GPGSV,3,2,11,15,50,294,35,17,02,123,,20,11,324,24,21,09,295,*71
$GPGSV,3,3,11,24,19,252,12,28,54,088,32,30,34,067,30*4D
$GPGLL,5043.59993,N,00231.98187,E,145755.00,A,A*6C
$GPRMC,145756.00,A,5043.59767,N,00231.97863,E,11.476,221.52,261218,,,A*5C
$GPVTG,221.52,T,,M,11.476,N,21.254,K,A*3E
$GPGGA,145756.00,5043.59767,N,00231.97863,E,1,06,1.42,19.0,M,45.8,M,,*63
$GPGSA,A,3,28,13,05,24,30,15,,,,,,,2.58,1.42,2.15*00
$GPGSV,3,1,11,05,32,192,31,07,03,068,16,08,06,020,,13,88,349,19*72
$GPGSV,3,2,11,15,50,294,35,17,02,123,,20,11,324,19,21,09,295,*7F
$GPGSV,3,3,11,24,19,252,12,28,54,088,33,30,34,067,33*4F
$GPGLL,5043.59767,N,00231.97863,E,145756.00,A,A*66
$GPRMC,145757.00,A,5043.59508,N,00231.97541,E,12.080,218.63,261218,,,A*5D
$GPVTG,218.63,T,,M,12.080,N,22.373,K,A*3F
$GPGGA,145757.00,5043.59508,N,00231.97541,E,1,06,1.42,19.3,M,45.8,M,,*67
$GPGSA,A,3,28,13,05,24,30,15,,,,,,,2.58,1.42,2.15*00
$GPGSV,3,1,11,05,32,192,25,07,03,068,16,08,06,020,,13,88,349,20*7D
$GPGSV,3,2,11,15,50,294,32,17,02,123,,20,11,324,16,21,09,295,*77
$GPGSV,3,3,11,24,19,252,12,28,54,088,27,30,34,067,29*41
$GPGLL,5043.59508,N,00231.97541,E,145757.00,A,A*61
$GPRMC,145758.00,A,5043.59224,N,00231.97304,E,11.472,210.28,261218,,,A*51
$GPVTG,210.28,T,,M,11.472,N,21.246,K,A*36
$GPGGA,145758.00,5043.59224,N,00231.97304,E,1,06,1.42,19.7,M,45.8,M,,*62
$GPGSA,A,3,28,13,05,24,30,15,,,,,,,2.58,1.42,2.15*00
$GPGSV,3,1,11,05,32,192,21,07,03,068,15,08,06,020,,13,88,349,19*70
$GPGSV,3,2,11,15,50,294,30,17,02,123,,20,11,324,10,21,09,295,*73
$GPGSV,3,3,11,24,19,252,12,28,54,088,26,30,34,067,27*4E
$GPGLL,5043.59224,N,00231.97304,E,145758.00,A,A*60
$GPRMC,145759.00,A,5043.58991,N,00231.97131,E,9.727,208.36,261218,,,A*6C
$GPVTG,208.36,T,,M,9.727,N,18.014,K,A*05
$GPGGA,145759.00,5043.58991,N,00231.97131,E,1,06,1.42,20.3,M,45.8,M,,*6D
$GPGSA,A,3,28,13,05,24,30,15,,,,,,,2.58,1.42,2.15*00
$GPGSV,3,1,11,05,32,192,18,07,03,068,16,08,06,020,,13,88,349,17*77
$GPGSV,3,2,11,15,50,294,21,17,02,123,,20,11,324,08,21,09,295,*7A
$GPGSV,3,3,11,24,19,252,12,28,54,088,23,30,34,067,25*49
$GPGLL,5043.58991,N,00231.97131,E,145759.00,A,A*61
$GPRMC,145800.00,A,5043.58740,N,00231.96902,E,10.865,208.53,261218,,,A*56
$GPVTG,208.53,T,,M,10.865,N,20.122,K,A*38
$GPGGA,145800.00,5043.58740,N,00231.96902,E,1,06,1.42,20.3,M,45.8,M,,*65
$GPGSA,A,3,28,13,05,24,30,15,,,,,,,2.58,1.42,2.15*00
$GPGSV,3,1,11,05,32,192,25,07,03,068,16,08,06,020,,13,88,349,15*7B
$GPGSV,3,2,11,15,50,294,17,17,02,123,,20,11,324,08,21,09,295,*7F
$GPGSV,3,3,11,24,19,252,12,28,54,088,19,30,34,067,21*44
$GPGLL,5043.58740,N,00231.96902,E,145800.00,A,A*69
$GPRMC,145801.00,A,5043.58252,N,00231.96724,E,15.081,202.36,261218,,,A*55
$GPVTG,202.36,T,,M,15.081,N,27.930,K,A*3A
$GPGGA,145801.00,5043.58252,N,00231.96724,E,1,05,1.60,20.3,M,45.8,M,,*6B
$GPGSA,A,3,28,13,05,30,15,,,,,,,,3.35,1.60,2.94*05
$GPGSV,3,1,11,05,32,192,36,07,03,068,,08,06,020,,13,88,349,15*7E
$GPGSV,3,2,11,15,50,294,13,17,02,123,,20,11,324,,21,09,295,*73
$GPGSV,3,3,11,24,19,252,19,28,54,088,10,30,34,067,12*46
$GPGLL,5043.58252,N,00231.96724,E,145801.00,A,A*64
$GPRMC,145802.00,V,,,,,,,261218,,,N*79
$GPVTG,,,,,,,,,N*30
$GPGGA,145802.00,,,,,0,00,99.99,,,,,,*6C
$GPGSA,A,1,,,,,,,,,,,,,99.99,99.99,99.99*30
$GPGSV,3,1,11,05,32,192,32,07,03,068,,08,06,020,,13,88,356,*70
$GPGSV,3,2,11,15,50,294,29,17,02,123,,20,11,324,,21,09,295,*7A
$GPGSV,3,3,11,24,19,252,16,28,54,088,08,30,34,067,09*4A
$GPGLL,,,,,145802.00,V,N*40
$GPRMC,145803.00,A,5043.57597,N,00231.95786,E,15.023,221.31,261218,,,A*53
$GPVTG,221.31,T,,M,15.023,N,27.822,K,A*36
$GPGGA,145803.00,5043.57597,N,00231.95786,E,1,03,1.57,20.3,M,45.8,M,,*61
$GPGSA,A,2,05,30,15,,,,,,,,,,1.86,1.57,1.00*0C
$GPGSV,3,1,11,05,32,192,35,07,03,068,,08,06,020,,13,88,356,17*71
$GPGSV,3,2,11,15,50,294,26,17,02,123,,20,11,324,,21,09,295,*75
$GPGSV,3,3,11,24,19,252,14,28,54,088,07,30,34,067,31*4C
$GPGLL,5043.57597,N,00231.95786,E,145803.00,A,A*6C
$GPRMC,145804.00,A,5043.57342,N,00231.95186,E,15.315,235.03,261218,,,A*5E
$GPVTG,235.03,T,,M,15.315,N,28.364,K,A*32
$GPGGA,145804.00,5043.57342,N,00231.95186,E,1,05,1.46,20.5,M,45.8,M,,*6E
$GPGSA,A,3,28,05,24,30,15,,,,,,,,3.44,1.46,3.12*0C
$GPGSV,3,1,11,05,32,192,29,07,03,068,,08,06,020,,13,88,356,20*78
$GPGSV,3,2,11,15,50,294,26,17,02,123,,20,11,324,19,21,09,295,*7D
$GPGSV,3,3,11,24,19,252,28,28,54,088,33,30,34,067,33*46
$GPGLL,5043.57342,N,00231.95186,E,145804.00,A,A*63
$GPRMC,145805.00,A,5043.57136,N,00231.94601,E,17.673,246.05,261218,,,A*52
$GPVTG,246.05,T,,M,17.673,N,32.731,K,A*38
$GPGGA,145805.00,5043.57136,N,00231.94601,E,1,05,1.46,20.5,M,45.8,M,,*67
$GPGSA,A,3,28,05,24,30,15,,,,,,,,3.44,1.46,3.12*0C
$GPGSV,3,1,11,05,32,192,21,07,03,068,,08,06,020,,13,88,356,21*71
$GPGSV,3,2,11,15,50,294,31,17,02,123,,20,11,324,16,21,09,295,*74
$GPGSV,3,3,11,24,19,252,27,28,54,088,34,30,34,067,33*4E
$GPGLL,5043.57136,N,00231.94601,E,145805.00,A,A*6A
$GPRMC,145806.00,A,5043.56922,N,00231.93907,E,18.945,246.25,261218,,,A*54
$GPVTG,246.25,T,,M,18.945,N,35.086,K,A*33
$GPGGA,145806.00,5043.56922,N,00231.93907,E,1,06,1.42,21.2,M,45.8,M,,*67
$GPGSA,A,3,28,13,05,24,30,15,,,,,,,2.58,1.42,2.15*00
$GPGSV,3,1,11,05,32,192,20,07,03,068,,08,06,020,,13,88,356,22*73
$GPGSV,3,2,11,15,50,294,31,17,02,123,,20,11,324,15,21,09,295,*77
$GPGSV,3,3,11,24,19,252,28,28,54,088,33,30,34,067,32*47
$GPGLL,5043.56922,N,00231.93907,E,145806.00,A,A*6B
$GPRMC,145807.00,A,5043.56698,N,00231.93167,E,19.330,245.46,261218,,,A*5A
$GPVTG,245.46,T,,M,19.330,N,35.799,K,A*35
$GPGGA,145807.00,5043.56698,N,00231.93167,E,1,06,1.42,21.5,M,45.8,M,,*61
$GPGSA,A,3,28,13,05,24,30,15,,,,,,,2.58,1.42,2.15*00
$GPGSV,3,1,11,05,32,192,23,07,03,068,17,08,06,020,,13,88,356,23*77
$GPGSV,3,2,11,15,50,294,25,17,02,123,,20,11,324,12,21,09,295,*75
$GPGSV,3,3,11,24,19,252,29,28,54,088,34,30,34,067,31*42
$GPGLL,5043.56698,N,00231.93167,E,145807.00,A,A*6A
$GPRMC,145808.00,A,5043.56459,N,00231.92384,E,20.761,245.40,261218,,,A*58
$GPVTG,245.40,T,,M,20.761,N,38.449,K,A*3A
$GPGGA,145808.00,5043.56459,N,00231.92384,E,1,06,1.42,21.4,M,45.8,M,,*6E
$GPGSA,A,3,28,13,05,24,30,15,,,,,,,2.58,1.42,2.15*00
$GPGSV,3,1,11,05,32,192,23,07,03,068,17,08,06,020,,13,88,356,22*76
$GPGSV,3,2,11,15,50,294,25,17,02,123,,20,11,324,08,21,09,295,*7E
$GPGSV,3,3,11,24,19,252,29,28,54,088,33,30,34,067,31*45
$GPGLL,5043.56459,N,00231.92384,E,145808.00,A,A*64
$GPRMC,145809.00,A,5043.56197,N,00231.91571,E,21.490,244.53,261218,,,A*5E
$GPVTG,244.53,T,,M,21.490,N,39.800,K,A*35
$GPGGA,145809.00,5043.56197,N,00231.91571,E,1,06,1.42,20.7,M,45.8,M,,*65
$GPGSA,A,3,28,13,05,24,30,15,,,,,,,2.58,1.42,2.15*00
$GPGSV,3,1,11,05,32,192,24,07,03,068,17,08,06,020,,13,88,356,20*73
$GPGSV,3,2,11,15,50,294,25,17,02,123,,20,11,323,07,21,09,295,*76
$GPGSV,3,3,11,24,19,252,29,28,54,088,33,30,34,067,30*44
$GPGLL,5043.56197,N,00231.91571,E,145809.00,A,A*6D
$GPRMC,145810.00,A,5043.55930,N,00231.90750,E,21.624,244.33,261218,,,A*5B
$GPVTG,244.33,T,,M,21.624,N,40.047,K,A*3B
$GPGGA,145810.00,5043.55930,N,00231.90750,E,1,06,1.42,20.7,M,45.8,M,,*6B
$GPGSA,A,3,28,13,05,24,30,15,,,,,,,2.58,1.42,2.15*00
$GPGSV,3,1,11,05,32,192,26,07,03,068,18,08,06,020,,13,88,356,18*75
$GPGSV,3,2,11,15,50,294,24,17,02,123,,20,11,323,07,21,09,295,*77
$GPGSV,3,3,11,24,19,252,29,28,54,088,33,30,34,067,30*44
$GPGLL,5043.55930,N,00231.90750,E,145810.00,A,A*63
$GPRMC,145811.00,A,5043.55641,N,00231.89928,E,21.849,244.74,261218,,,A*5C
$GPVTG,244.74,T,,M,21.849,N,40.464,K,A*38
$GPGGA,145811.00,5043.55641,N,00231.89928,E,1,06,1.42,20.6,M,45.8,M,,*6B
$GPGSA,A,3,28,13,05,24,30,15,,,,,,,2.58,1.42,2.15*00
$GPGSV,3,1,11,05,32,192,31,07,03,068,17,08,06,020,,13,88,356,15*71
$GPGSV,3,2,11,15,50,294,22,17,02,123,,20,11,323,07,21,09,295,*71
$GPGSV,3,3,11,24,19,252,28,28,54,088,32,30,34,067,29*4C
$GPGLL,5043.55641,N,00231.89928,E,145811.00,A,A*62
$GPRMC,145812.00,A,5043.55379,N,00231.89087,E,21.887,244.32,261218,,,A*5D
$GPVTG,244.32,T,,M,21.887,N,40.535,K,A*3D
$GPGGA,145812.00,5043.55379,N,00231.89087,E,1,06,1.42,20.4,M,45.8,M,,*68
$GPGSA,A,3,28,13,05,24,30,15,,,,,,,2.58,1.42,2.15*00
$GPGSV,3,1,11,05,32,192,23,07,03,068,16,08,06,020,,13,88,356,18*7E
$GPGSV,3,2,11,15,50,294,21,17,02,123,,20,11,323,07,21,09,295,*72
$GPGSV,3,3,11,24,19,252,28,28,54,088,30,30,34,067,28*4F
$GPGLL,5043.55379,N,00231.89087,E,145812.00,A,A*63
$GPRMC,145813.00,A,5043.55170,N,00231.88213,E,21.601,247.56,261218,,,A*58
$GPVTG,247.56,T,,M,21.601,N,40.004,K,A*3B
$GPGGA,145813.00,5043.55170,N,00231.88213,E,1,06,1.42,20.2,M,45.8,M,,*6A
$GPGSA,A,3,28,13,05,24,30,15,,,,,,,2.58,1.42,2.15*00
$GPGSV,3,1,11,05,32,192,22,07,03,068,17,08,06,020,,13,88,356,18*7E
$GPGSV,3,2,11,15,50,294,21,17,02,123,,20,11,323,,21,09,295,*75
$GPGSV,3,3,11,24,20,252,28,28,54,088,30,30,34,067,28*45
$GPGLL,5043.55170,N,00231.88213,E,145813.00,A,A*67
$GPRMC,145814.00,A,5043.54984,N,00231.87346,E,21.132,250.21,261218,,,A*52
$GPVTG,250.21,T,,M,21.132,N,39.136,K,A*34
$GPGGA,145814.00,5043.54984,N,00231.87346,E,1,06,1.42,19.8,M,45.8,M,,*61
$GPGSA,A,3,28,13,05,24,30,15,,,,,,,2.58,1.42,2.15*00
$GPGSV,3,1,11,05,32,192,23,07,03,068,17,08,06,020,,13,88,356,17*70
$GPGSV,3,2,11,15,50,294,21,17,02,123,,20,11,323,,21,09,295,*75
$GPGSV,3,3,11,24,20,252,28,28,54,088,30,30,34,067,27*4A
$GPGLL,5043.54984,N,00231.87346,E,145814.00,A,A*6C
$GPRMC,145815.00,A,5043.54787,N,00231.86501,E,20.804,249.00,261218,,,A*5C
$GPVTG,249.00,T,,M,20.804,N,38.529,K,A*39
$GPGGA,145815.00,5043.54787,N,00231.86501,E,1,06,1.42,19.7,M,45.8,M,,*66
$GPGSA,A,3,28,13,05,24,30,15,,,,,,,2.58,1.42,2.15*00
$GPGSV,3,1,11,05,32,192,22,07,03,068,17,08,06,020,,13,88,356,15*73
$GPGSV,3,2,11,15,50,294,22,17,02,123,,20,11,323,,21,09,295,*76
$GPGSV,3,3,11,24,20,252,28,28,54,088,32,30,34,067,26*49
$GPGLL,5043.54787,N,00231.86501,E,145815.00,A,A*64
$GPRMC,145816.00,A,5043.54560,N,00231.85682,E,20.830,247.55,261218,,,A*56
$GPVTG,247.55,T,,M,20.830,N,38.578,K,A*34
$GPGGA,145816.00,5043.54560,N,00231.85682,E,1,06,1.42,19.0,M,45.8,M,,*62
$GPGSA,A,3,28,13,05,24,30,15,,,,,,,2.58,1.42,2.15*00
$GPGSV,3,1,11,05,32,192,20,07,03,068,18,08,06,020,,13,88,356,17*7C
$GPGSV,3,2,11,15,50,294,31,17,02,123,,20,11,323,,21,09,295,19*7C
$GPGSV,3,3,11,24,20,252,28,28,54,088,32,30,34,067,26*49
$GPGLL,5043.54560,N,00231.85682,E,145816.00,A,A*67
$GPRMC,145817.00,A,5043.54357,N,00231.84853,E,20.463,248.58,261218,,,A*5E
$GPVTG,248.58,T,,M,20.463,N,37.898,K,A*30
$GPGGA,145817.00,5043.54357,N,00231.84853,E,1,06,1.42,18.3,M,45.8,M,,*60
$GPGSA,A,3,28,13,05,24,30,15,,,,,,,2.58,1.42,2.15*00
$GPGSV,3,1,11,05,32,192,17,07,03,068,19,08,06,020,,13,88,356,17*79
$GPGSV,3,2,11,15,50,294,25,17,02,123,,20,11,323,17,21,09,295,16*70
$GPGSV,3,3,11,24,20,252,28,28,54,087,31,30,34,067,26*45
$GPGLL,5043.54357,N,00231.84853,E,145817.00,A,A*67
$GPRMC,145818.00,A,5043.54095,N,00231.84045,E,20.574,244.80,261218,,,A*5D
$GPVTG,244.80,T,,M,20.574,N,38.104,K,A*3D
$GPGGA,145818.00,5043.54095,N,00231.84045,E,1,06,1.42,18.2,M,45.8,M,,*6C
$GPGSA,A,3,28,13,05,24,30,15,,,,,,,2.58,1.42,2.15*00
$GPGSV,3,1,11,05,32,192,13,07,03,068,20,08,06,020,,13,88,356,17*77
$GPGSV,3,2,11,15,50,294,26,17,02,123,,20,11,323,18,21,09,295,15*7F
$GPGSV,3,3,11,24,20,252,27,28,54,087,31,30,34,067,27*4B
$GPGLL,5043.54095,N,00231.84045,E,145818.00,A,A*6A
$GPRMC,145819.00,A,5043.53872,N,00231.83207,E,20.334,245.06,261218,,,A*54
$GPVTG,245.06,T,,M,20.334,N,37.659,K,A*30
$GPGGA,145819.00,5043.53872,N,00231.83207,E,1,06,1.42,18.4,M,45.8,M,,*6E
$GPGSA,A,3,28,13,05,24,30,15,,,,,,,2.58,1.42,2.15*00
$GPGSV,3,1,11,05,32,192,14,07,03,068,19,08,06,020,,13,88,356,17*7A
$GPGSV,3,2,11,15,50,294,28,17,02,123,,20,11,323,15,21,09,295,10*79
$GPGSV,3,3,11,24,20,252,27,28,54,087,30,30,34,067,28*45
$GPGLL,5043.53872,N,00231.83207,E,145819.00,A,A*6E
$GPRMC,145820.00,A,5043.53661,N,00231.82377,E,20.217,245.95,261218,,,A*5F
$GPVTG,245.95,T,,M,20.217,N,37.441,K,A*31
$GPGGA,145820.00,5043.53661,N,00231.82377,E,1,06,1.42,18.3,M,45.8,M,,*68
$GPGSA,A,3,28,13,05,24,30,15,,,,,,,2.58,1.42,2.15*00
$GPGSV,3,1,11,05,32,192,27,07,03,068,18,08,06,020,,13,88,356,16*7A
$GPGSV,3,2,11,15,50,294,27,17,02,123,,20,11,323,10,21,09,295,09*7B
$GPGSV,3,3,11,24,20,252,27,28,54,087,31,30,34,067,27*4B
$GPGLL,5043.53661,N,00231.82377,E,145820.00,A,A*6F
$GPRMC,145821.00,A,5043.53428,N,00231.81562,E,20.223,245.78,261218,,,A*54
$GPVTG,245.78,T,,M,20.223,N,37.452,K,A*37
$GPGGA,145821.00,5043.53428,N,00231.81562,E,1,06,1.42,18.4,M,45.8,M,,*60
$GPGSA,A,3,28,13,05,24,30,15,,,,,,,2.58,1.42,2.15*00
$GPGSV,3,1,11,05,32,192,26,07,03,068,16,08,06,020,15,13,88,356,14*73
$GPGSV,3,2,11,15,50,294,25,17,02,123,,20,11,323,08,21,09,295,08*71
$GPGSV,3,3,11,24,20,252,27,28,54,087,32,30,34,067,26*49
$GPGLL,5043.53428,N,00231.81562,E,145821.00,A,A*60
$GPRMC,145822.00,A,5043.53109,N,00231.80783,E,20.225,245.31,261218,,,A*56
$GPVTG,245.31,T,,M,20.225,N,37.456,K,A*38
$GPGGA,145822.00,5043.53109,N,00231.80783,E,1,08,1.08,18.7,M,45.8,M,,*6A
$GPGSA,A,3,28,13,05,24,20,30,15,21,,,,,1.90,1.08,1.57*0D
$GPGSV,3,1,11,05,32,192,33,07,03,068,17,08,06,020,15,13,88,356,13*71
$GPGSV,3,2,11,15,50,294,25,17,02,123,,20,11,323,10,21,09,295,10*71
$GPGSV,3,3,11,24,20,252,28,28,54,087,32,30,34,067,27*47
$GPGLL,5043.53109,N,00231.80783,E,145822.00,A,A*69
$GPRMC,145823.00,A,5043.52869,N,00231.79987,E,20.273,245.49,261218,,,A*59
$GPVTG,245.49,T,,M,20.273,N,37.546,K,A*34
$GPGGA,145823.00,5043.52869,N,00231.79987,E,1,08,1.08,18.6,M,45.8,M,,*68
$GPGSA,A,3,28,13,05,24,20,30,15,21,,,,,1.90,1.08,1.57*0D
$GPGSV,3,1,11,05,32,192,21,07,03,068,15,08,06,020,13,13,88,356,13*76
$GPGSV,3,2,11,15,50,294,27,17,02,123,,20,11,323,10,21,09,295,11*72
$GPGSV,3,3,11,24,20,252,28,28,54,087,32,30,34,067,27*47
$GPGLL,5043.52869,N,00231.79987,E,145823.00,A,A*6A
$GPRMC,145824.00,A,5043.52623,N,00231.79177,E,20.309,245.31,261218,,,A*5A
$GPVTG,245.31,T,,M,20.309,N,37.612,K,A*35
$GPGGA,145824.00,5043.52623,N,00231.79177,E,1,08,1.08,19.2,M,45.8,M,,*6D
$GPGSA,A,3,28,13,05,24,20,30,15,21,,,,,1.90,1.08,1.57*0D
$GPGSV,3,1,11,05,32,192,21,07,03,068,14,08,06,020,09,13,88,356,13*7C
$GPGSV,3,2,11,15,50,294,27,17,02,123,,20,11,323,10,21,09,295,11*72
$GPGSV,3,3,11,24,20,252,29,28,54,087,32,30,34,067,28*49
$GPGLL,5043.52623,N,00231.79177,E,145824.00,A,A*6A
$GPRMC,145825.00,A,5043.52382,N,00231.78369,E,20.272,244.11,261218,,,A*57
$GPVTG,244.11,T,,M,20.272,N,37.545,K,A*3A
$GPGGA,145825.00,5043.52382,N,00231.78369,E,1,06,1.42,19.5,M,45.8,M,,*69
$GPGSA,A,3,28,13,05,24,30,15,,,,,,,2.58,1.42,2.15*00
$GPGSV,3,1,11,05,32,192,22,07,03,068,15,08,06,020,,13,88,356,14*70
$GPGSV,3,2,11,15,50,294,27,17,02,123,,20,11,323,,21,09,295,*73
$GPGSV,3,3,11,24,20,252,29,28,54,087,32,30,34,067,28*49
$GPGLL,5043.52382,N,00231.78369,E,145825.00,A,A*69
$GPRMC,145826.00,A,5043.52160,N,00231.77566,E,19.802,245.68,261218,,,A*54
$GPVTG,245.68,T,,M,19.802,N,36.674,K,A*32
$GPGGA,145826.00,5043.52160,N,00231.77566,E,1,06,1.42,19.8,M,45.8,M,,*6F
$GPGSA,A,3,28,13,05,24,30,15,,,,,,,2.58,1.42,2.15*00
$GPGSV,3,1,11,05,32,192,23,07,03,068,15,08,06,020,,13,88,356,15*70
$GPGSV,3,2,11,15,50,294,27,17,02,123,,20,11,323,,21,09,295,*73
$GPGSV,3,3,11,24,20,252,30,28,54,087,34,30,34,067,29*46
$GPGLL,5043.52160,N,00231.77566,E,145826.00,A,A*62
$GPRMC,145827.00,A,5043.51984,N,00231.76760,E,19.019,249.16,261218,,,A*56
$GPVTG,249.16,T,,M,19.019,N,35.224,K,A*37
$GPGGA,145827.00,5043.51984,N,00231.76760,E,1,06,1.42,20.8,M,45.8,M,,*60
$GPGSA,A,3,28,13,05,24,30,15,,,,,,,2.58,1.42,2.15*00
$GPGSV,3,1,11,05,32,192,21,07,03,068,16,08,06,020,,13,88,356,15*71
$GPGSV,3,2,11,15,50,294,27,17,02,123,,20,11,323,21,21,09,295,*70
$GPGSV,3,3,11,24,20,252,29,28,54,087,33,30,34,067,34*45
$GPGLL,5043.51984,N,00231.76760,E,145827.00,A,A*67
$GPRMC,145828.00,A,5043.51833,N,00231.76012,E,17.693,248.73,261218,,,A*5E
$GPVTG,248.73,T,,M,17.693,N,32.767,K,A*3A
$GPGGA,145828.00,5043.51833,N,00231.76012,E,1,06,1.42,21.1,M,45.8,M,,*68
$GPGSA,A,3,28,13,05,24,30,15,,,,,,,2.58,1.42,2.15*00
$GPGSV,3,1,11,05,32,192,29,07,03,068,15,08,06,020,,13,88,356,14*7B
$GPGSV,3,2,11,15,50,294,26,17,02,123,,20,11,323,20,21,09,295,*70
$GPGSV,3,3,11,24,20,252,29,28,54,087,33,30,34,067,32*43
$GPGLL,5043.51833,N,00231.76012,E,145828.00,A,A*67
$GPRMC,145829.00,A,5043.51636,N,00231.75376,E,15.173,247.60,261218,,,A*50
$GPVTG,247.60,T,,M,15.173,N,28.101,K,A*31
$GPGGA,145829.00,5043.51636,N,00231.75376,E,1,06,1.42,21.4,M,45.8,M,,*65
$GPGSA,A,3,28,13,05,24,30,15,,,,,,,2.58,1.42,2.15*00
$GPGSV,3,1,11,05,32,192,31,07,03,068,12,08,06,020,,13,88,356,17*76
$GPGSV,3,2,11,15,50,294,23,17,02,123,,20,11,323,14,21,09,295,*72
$GPGSV,3,3,11,24,20,252,27,28,54,087,35,30,34,067,27*4F
$GPGLL,5043.51636,N,00231.75376,E,145829.00,A,A*6F
$GPRMC,145830.00,A,5043.51502,N,00231.74880,E,11.544,248.39,261218,,,A*58
$GPVTG,248.39,T,,M,11.544,N,21.380,K,A*34
$GPGGA,145830.00,5043.51502,N,00231.74880,E,1,06,1.42,21.2,M,45.8,M,,*6C
$GPGSA,A,3,28,13,05,24,30,15,,,,,,,2.58,1.42,2.15*00
$GPGSV,3,1,11,05,32,192,34,07,03,068,14,08,06,020,,13,88,356,21*70
$GPGSV,3,2,11,15,50,294,23,17,02,123,,20,11,323,09,21,09,295,*7E
$GPGSV,3,3,11,24,20,252,26,28,54,087,33,30,34,067,27*48
$GPGLL,5043.51502,N,00231.74880,E,145830.00,A,A*60
$GPRMC,145831.00,A,5043.51389,N,00231.74525,E,8.450,248.54,261218,,,A*69
$GPVTG,248.54,T,,M,8.450,N,15.649,K,A*04
$GPGGA,145831.00,5043.51389,N,00231.74525,E,1,06,1.42,20.5,M,45.8,M,,*6C
$GPGSA,A,3,28,13,05,24,30,15,,,,,,,2.58,1.42,2.15*00
$GPGSV,3,1,11,05,32,192,30,07,03,068,14,08,06,020,,13,88,356,22*77
$GPGSV,3,2,11,15,50,294,29,17,02,123,,20,11,323,,21,09,295,*7D
$GPGSV,3,3,11,24,20,252,24,28,54,087,33,30,34,067,27*4A
$GPGLL,5043.51389,N,00231.74525,E,145831.00,A,A*66
$GPRMC,145832.00,A,5043.51312,N,00231.74215,E,7.431,249.40,261218,,,A*60
$GPVTG,249.40,T,,M,7.431,N,13.762,K,A*06
$GPGGA,145832.00,5043.51312,N,00231.74215,E,1,06,1.42,20.2,M,45.8,M,,*6E
$GPGSA,A,3,28,13,05,24,30,15,,,,,,,2.58,1.42,2.15*00
$GPGSV,3,1,11,05,32,192,30,07,03,068,16,08,06,020,,13,88,356,26*71
$GPGSV,3,2,11,15,50,294,28,17,02,123,,20,11,323,,21,09,295,*7C
$GPGSV,3,3,11,24,20,252,25,28,54,087,36,30,34,067,25*4C
$GPGLL,5043.51312,N,00231.74215,E,145832.00,A,A*63
$GPRMC,145833.00,A,5043.51252,N,00231.73878,E,8.098,251.45,261218,,,A*66
$GPVTG,251.45,T,,M,8.098,N,14.997,K,A*01
$GPGGA,145833.00,5043.51252,N,00231.73878,E,1,06,1.42,20.2,M,45.8,M,,*6C
$GPGSA,A,3,28,13,05,24,30,15,,,,,,,2.58,1.42,2.15*00
$GPGSV,3,1,11,05,32,192,22,07,03,068,19,08,06,020,,13,88,356,27*7C
$GPGSV,3,2,11,15,50,294,33,17,02,123,,20,11,323,,21,09,295,14*73
$GPGSV,3,3,11,24,20,252,26,28,54,087,36,30,34,067,34*4F
$GPGLL,5043.51252,N,00231.73878,E,145833.00,A,A*61
$GPRMC,145834.00,A,5043.51190,N,00231.73489,E,8.619,254.71,261218,,,A*63
$GPVTG,254.71,T,,M,8.619,N,15.962,K,A*07
$GPGGA,145834.00,5043.51190,N,00231.73489,E,1,06,1.42,21.7,M,45.8,M,,*60
$GPGSA,A,3,28,13,05,24,30,15,,,,,,,2.58,1.42,2.15*00
$GPGSV,3,1,11,05,32,192,21,07,03,068,20,08,06,020,,13,88,356,27*75
$GPGSV,3,2,11,15,50,294,27,17,02,123,,20,11,323,,21,09,295,15*77
$GPGSV,3,3,11,24,20,252,25,28,54,087,35,30,34,067,37*4C
$GPGLL,5043.51190,N,00231.73489,E,145834.00,A,A*69
$GPRMC,145835.00,A,5043.51179,N,00231.73038,E,10.975,265.80,261218,,,A*5B
$GPVTG,265.80,T,,M,10.975,N,20.327,K,A*3A
$GPGGA,145835.00,5043.51179,N,00231.73038,E,1,06,1.42,22.0,M,45.8,M,,*6C
$GPGSA,A,3,28,13,05,24,30,15,,,,,,,2.58,1.42,2.15*00
$GPGSV,3,1,11,05,32,192,21,07,03,068,22,08,06,020,14,13,88,356,24*71
$GPGSV,3,2,11,15,50,294,31,17,02,123,,20,11,323,,21,09,295,15*70
$GPGSV,3,3,11,24,20,252,26,28,54,087,31,30,34,067,29*44
$GPGLL,5043.51179,N,00231.73038,E,145835.00,A,A*61
$GPRMC,145836.00,A,5043.51121,N,00231.72504,E,12.394,263.59,261218,,,A*5B
$GPVTG,263.59,T,,M,12.394,N,22.954,K,A*33
$GPGGA,145836.00,5043.51121,N,00231.72504,E,1,06,1.42,22.8,M,45.8,M,,*61
$GPGSA,A,3,28,13,05,24,30,15,,,,,,,2.58,1.42,2.15*00
$GPGSV,3,1,11,05,32,192,30,07,03,068,19,08,06,020,13,13,88,356,22*78
$GPGSV,3,2,11,15,50,294,32,17,02,123,,20,11,323,21,21,09,295,15*70
$GPGSV,3,3,11,24,20,252,24,28,54,087,26,30,34,067,31*49
$GPGLL,5043.51121,N,00231.72504,E,145836.00,A,A*64
$GPRMC,145837.00,A,5043.51109,N,00231.71901,E,14.478,267.78,261218,,,A*5E
$GPVTG,267.78,T,,M,14.478,N,26.813,K,A*31
$GPGGA,145837.00,5043.51109,N,00231.71901,E,1,07,1.19,23.7,M,45.8,M,,*61
$GPGSA,A,3,28,13,05,24,30,15,21,,,,,,2.04,1.19,1.65*00
$GPGSV,3,1,11,05,31,192,22,07,03,068,16,08,06,020,12,13,88,356,21*75
$GPGSV,3,2,11,15,50,294,32,17,02,123,,20,11,323,19,21,09,295,23*7E
$GPGSV,3,3,11,24,20,252,27,28,54,087,35,30,34,067,32*4B
$GPGLL,5043.51109,N,00231.71901,E,145837.00,A,A*65
$GPRMC,145838.00,A,5043.51000,N,00231.71193,E,17.082,258.29,261218,,,A*50
$GPVTG,258.29,T,,M,17.082,N,31.635,K,A*37
$GPGGA,145838.00,5043.51000,N,00231.71193,E,1,07,1.19,23.9,M,45.8,M,,*6B
$GPGSA,A,3,28,13,05,24,30,15,21,,,,,,2.04,1.19,1.65*00
$GPGSV,3,1,11,05,31,192,20,07,03,068,13,08,06,020,13,13,88,356,21*73
$GPGSV,3,2,11,15,50,294,27,17,02,123,,20,11,323,15,21,09,295,21*74
$GPGSV,3,3,11,24,20,252,28,28,54,087,34,30,34,067,28*4E
$GPGLL,5043.51000,N,00231.71193,E,145838.00,A,A*61
$GPRMC,145839.00,A,5043.50896,N,00231.70456,E,16.946,256.45,261218,,,A*5E
$GPVTG,256.45,T,,M,16.946,N,31.384,K,A*3C
$GPGGA,145839.00,5043.50896,N,00231.70456,E,1,07,1.19,23.9,M,45.8,M,,*61
$GPGSA,A,3,28,13,05,24,30,15,21,,,,,,2.04,1.19,1.65*00
$GPGSV,3,1,11,05,31,192,27,07,03,068,10,08,06,020,12,13,88,356,22*75
$GPGSV,3,2,11,15,50,294,27,17,02,123,,20,11,323,15,21,09,295,17*71
$GPGSV,3,3,11,24,20,252,31,28,54,087,34,30,34,067,29*47
$GPGLL,5043.50896,N,00231.70456,E,145839.00,A,A*6B
$GPRMC,145840.00,A,5043.50751,N,00231.69731,E,18.005,252.46,261218,,,A*59
$GPVTG,252.46,T,,M,18.005,N,33.346,K,A*37
$GPGGA,145840.00,5043.50751,N,00231.69731,E,1,07,1.19,24.1,M,45.8,M,,*6E
$GPGSA,A,3,28,13,05,24,30,15,21,,,,,,2.04,1.19,1.65*00
$GPGSV,3,1,11,05,31,192,25,07,03,068,09,08,06,020,11,13,88,356,21*7F
$GPGSV,3,2,11,15,50,294,28,17,02,123,,20,11,323,13,21,09,295,15*7A
$GPGSV,3,3,11,24,20,252,30,28,54,087,34,30,34,067,33*4D
$GPGLL,5043.50751,N,00231.69731,E,145840.00,A,A*6B
$GPRMC,145841.00,A,5043.50667,N,00231.68932,E,18.849,260.00,261218,,,A*53
$GPVTG,260.00,T,,M,18.849,N,34.908,K,A*33
$GPGGA,145841.00,5043.50667,N,00231.68932,E,1,08,1.08,24.7,M,45.8,M,,*6E
$GPGSA,A,3,28,13,05,24,20,30,15,21,,,,,1.90,1.08,1.56*0C
$GPGSV,3,1,11,05,31,192,24,07,03,068,08,08,06,020,10,13,88,356,20*7F
$GPGSV,3,2,11,15,50,294,27,17,02,123,,20,11,323,10,21,09,295,14*77
$GPGSV,3,3,11,24,20,252,29,28,54,087,34,30,34,067,31*47
$GPGLL,5043.50667,N,00231.68932,E,145841.00,A,A*62
$GPRMC,145842.00,A,5043.50517,N,00231.68185,E,18.556,255.04,261218,,,A*51
$GPVTG,255.04,T,,M,18.556,N,34.366,K,A*30
$GPGGA,145842.00,5043.50517,N,00231.68185,E,1,07,1.19,23.7,M,45.8,M,,*65
$GPGSA,A,3,28,13,05,24,30,15,21,,,,,,2.04,1.19,1.65*00
$GPGSV,3,1,11,05,31,192,23,07,03,068,08,08,06,020,09,13,88,356,17*74
$GPGSV,3,2,11,15,50,294,34,17,02,123,,20,11,323,09,21,09,295,13*7A
$GPGSV,3,3,11,24,20,252,27,28,54,087,33,30,34,067,26*48
$GPGLL,5043.50517,N,00231.68185,E,145842.00,A,A*61
$GPRMC,145843.00,A,5043.50409,N,00231.67430,E,17.685,257.28,261218,,,A*54
$GPVTG,257.28,T,,M,17.685,N,32.752,K,A*3B
$GPGGA,145843.00,5043.50409,N,00231.67430,E,1,08,1.08,23.9,M,45.8,M,,*6F
$GPGSA,A,3,28,13,05,24,20,30,15,21,,,,,1.90,1.08,1.56*0C
$GPGSV,3,1,11,05,31,192,29,07,03,068,08,08,06,020,,13,88,356,16*76
$GPGSV,3,2,11,15,50,294,31,17,02,123,,20,11,323,10,21,09,295,14*70
$GPGSV,3,3,11,24,20,252,28,28,54,087,32,30,34,067,26*46
$GPGLL,5043.50409,N,00231.67430,E,145843.00,A,A*6A
$GPRMC,145844.00,A,5043.50263,N,00231.66785,E,15.082,254.13,261218,,,A*5D
$GPVTG,254.13,T,,M,15.082,N,27.931,K,A*3C
$GPGGA,145844.00,5043.50263,N,00231.66785,E,1,08,1.08,23.7,M,45.8,M,,*60
$GPGSA,A,3,28,13,05,24,20,30,15,21,,,,,1.90,1.08,1.56*0C
$GPGSV,3,1,11,05,31,192,19,07,03,068,08,08,06,020,,13,88,356,15*76
$GPGSV,3,2,11,15,50,294,30,17,02,123,,20,11,323,07,21,09,295,08*7A
$GPGSV,3,3,11,24,20,252,28,28,54,087,32,30,34,067,26*46
$GPGLL,5043.50263,N,00231.66785,E,145844.00,A,A*6B
$GPRMC,145845.00,A,5043.50152,N,00231.66275,E,11.331,253.88,261218,,,A*5D
$GPVTG,253.88,T,,M,11.331,N,20.986,K,A*3D
$GPGGA,145845.00,5043.50152,N,00231.66275,E,1,08,1.08,23.7,M,45.8,M,,*6A
$GPGSA,A,3,28,13,05,24,20,30,15,21,,,,,1.90,1.08,1.56*0C
$GPGSV,3,1,11,05,31,192,18,07,03,068,08,08,06,020,,13,88,004,15*73
$GPGSV,3,2,11,15,50,294,30,17,02,123,,20,11,323,07,21,09,295,08*7A
$GPGSV,3,3,11,24,20,252,28,28,54,087,31,30,34,067,26*45
$GPGLL,5043.50152,N,00231.66275,E,145845.00,A,A*61
$GPRMC,145846.00,A,5043.50074,N,00231.65865,E,9.014,254.18,261218,,,A*60
$GPVTG,254.18,T,,M,9.014,N,16.694,K,A*07
$GPGGA,145846.00,5043.50074,N,00231.65865,E,1,07,1.19,23.9,M,45.8,M,,*65
$GPGSA,A,3,28,13,05,24,30,15,21,,,,,,2.04,1.19,1.65*00
$GPGSV,3,1,11,05,31,192,27,07,03,068,08,08,06,020,,13,88,004,17*7D
$GPGSV,3,2,11,15,50,294,30,17,02,123,,20,11,323,07,21,09,295,08*7A
$GPGSV,3,3,11,24,20,252,29,28,54,087,31,30,34,067,27*45
$GPGLL,5043.50074,N,00231.65865,E,145846.00,A,A*6F
$GPRMC,145847.00,A,5043.49974,N,00231.65523,E,8.128,256.08,261218,,,A*63
$GPVTG,256.08,T,,M,8.128,N,15.052,K,A*04
$GPGGA,145847.00,5043.49974,N,00231.65523,E,1,07,1.19,23.7,M,45.8,M,,*64
$GPGSA,A,3,28,13,05,24,30,15,21,,,,,,2.03,1.19,1.65*07
$GPGSV,3,1,11,05,31,192,28,07,03,068,08,08,06,020,,13,88,004,18*7D
$GPGSV,3,2,11,15,51,293,29,17,02,123,,20,11,323,07,21,09,295,08*74
$GPGSV,3,3,11,24,20,252,28,28,54,087,25,30,34,067,33*44
$GPGLL,5043.49974,N,00231.65523,E,145847.00,A,A*60
$GPRMC,145848.00,A,5043.49990,N,00231.65204,E,7.542,269.58,261218,,,A*6A
$GPVTG,269.58,T,,M,7.542,N,13.968,K,A*0C
$GPGGA,145848.00,5043.49990,N,00231.65204,E,1,07,1.19,23.1,M,45.8,M,,*65
$GPGSA,A,3,28,13,05,24,30,15,21,,,,,,2.03,1.19,1.65*07
$GPGSV,3,1,11,05,31,192,29,07,03,068,10,08,06,020,,13,88,004,23*7D
$GPGSV,3,2,11,15,51,293,34,17,02,123,,20,11,323,08,21,09,295,09*76
$GPGSV,3,3,11,24,20,252,27,28,54,087,27,30,34,067,31*4B
$GPGLL,5043.49990,N,00231.65204,E,145848.00,A,A*67
$GPRMC,145849.00,A,5043.50060,N,00231.64847,E,7.319,283.11,261218,,,A*68
$GPVTG,283.11,T,,M,7.319,N,13.554,K,A*0E
$GPGGA,145849.00,5043.50060,N,00231.64847,E,1,08,1.08,25.1,M,45.8,M,,*6F
$GPGSA,A,3,28,13,05,24,20,30,15,21,,,,,1.90,1.08,1.56*0C
$GPGSV,3,1,11,05,31,192,33,07,03,068,10,08,06,020,,13,88,004,25*70
$GPGSV,3,2,11,15,51,293,39,17,02,123,,20,11,323,25,21,09,295,09*74
$GPGSV,3,3,11,24,20,252,27,28,54,087,34,30,34,067,40*4F
$GPGLL,5043.50060,N,00231.64847,E,145849.00,A,A*64
$GPRMC,145850.00,A,5043.50150,N,00231.64496,E,8.168,291.54,261218,,,A*6B
$GPVTG,291.54,T,,M,8.168,N,15.126,K,A*00
$GPGGA,145850.00,5043.50150,N,00231.64496,E,1,08,1.08,26.6,M,45.8,M,,*61
$GPGSA,A,3,28,13,05,24,20,30,15,21,,,,,1.90,1.08,1.56*0C
$GPGSV,3,1,11,05,31,192,29,07,03,068,16,08,06,020,,13,88,004,25*7D
$GPGSV,3,2,11,15,51,293,39,17,02,123,,20,11,323,25,21,09,295,15*79
$GPGSV,3,3,11,24,20,252,24,28,54,087,35,30,34,067,34*4E
$GPGLL,5043.50150,N,00231.64496,E,145850.00,A,A*6E
$GPRMC,145851.00,A,5043.50225,N,00231.64145,E,9.537,282.28,261218,,,A*66
$GPVTG,282.28,T,,M,9.537,N,17.663,K,A*02
$GPGGA,145851.00,5043.50225,N,00231.64145,E,1,08,1.08,25.3,M,45.8,M,,*6C
$GPGSA,A,3,28,13,05,24,20,30,15,21,,,,,1.90,1.08,1.56*0C
$GPGSV,3,1,11,05,31,192,29,07,03,068,16,08,06,020,,13,88,004,25*7D
$GPGSV,3,2,11,15,51,293,38,17,02,123,,20,11,323,22,21,09,295,14*7E
$GPGSV,3,3,11,24,20,252,25,28,54,087,31,30,34,067,38*47
$GPGLL,5043.50225,N,00231.64145,E,145851.00,A,A*65
$GPRMC,145852.00,A,5043.50178,N,00231.63666,E,12.066,272.50,261218,,,A*54
$GPVTG,272.50,T,,M,12.066,N,22.347,K,A*3C
$GPGGA,145852.00,5043.50178,N,00231.63666,E,1,08,1.08,25.8,M,45.8,M,,*6E
$GPGSA,A,3,28,13,05,24,20,30,15,21,,,,,1.90,1.08,1.56*0C
$GPGSV,3,1,11,05,31,192,28,07,03,068,14,08,06,020,,13,88,004,27*7C
$GPGSV,3,2,11,15,51,293,29,17,02,123,,20,11,323,21,21,09,295,14*7D
$GPGSV,3,3,11,24,20,252,25,28,54,087,25,30,34,067,33*49
$GPGLL,5043.50178,N,00231.63666,E,145852.00,A,A*6C
$GPRMC,145853.00,A,5043.49930,N,00231.63154,E,14.029,245.15,261218,,,A*57
$GPVTG,245.15,T,,M,14.029,N,25.981,K,A*33
$GPGGA,145853.00,5043.49930,N,00231.63154,E,1,08,1.08,25.7,M,45.8,M,,*6A
$GPGSA,A,3,28,13,05,24,20,30,15,21,,,,,1.90,1.08,1.56*0C
$GPGSV,3,1,11,05,31,192,35,07,03,068,09,08,06,020,,13,88,004,26*7D
$GPGSV,3,2,11,15,51,293,32,17,02,123,,20,11,323,18,21,09,295,14*7D
$GPGSV,3,3,11,24,20,252,29,28,54,087,31,30,34,067,33*40
$GPGLL,5043.49930,N,00231.63154,E,145853.00,A,A*67
$GPRMC,145854.00,A,5043.49503,N,00231.62614,E,16.828,230.57,261218,,,A*51
$GPVTG,230.57,T,,M,16.828,N,31.166,K,A*38
$GPGGA,145854.00,5043.49503,N,00231.62614,E,1,08,1.08,25.1,M,45.8,M,,*65
$GPGSA,A,3,28,13,05,24,20,30,15,21,,,,,1.90,1.08,1.56*0C
$GPGSV,3,1,11,05,31,192,37,07,03,068,08,08,06,020,,13,88,004,26*7E
$GPGSV,3,2,11,15,51,293,25,17,02,123,,20,11,323,16,21,09,295,14*75
$GPGSV,3,3,11,24,20,252,23,28,54,087,34,30,34,067,21*4C
$GPGLL,5043.49503,N,00231.62614,E,145854.00,A,A*6E
$GPRMC,145855.00,A,5043.49157,N,00231.62034,E,16.935,232.41,261218,,,A*59
$GPVTG,232.41,T,,M,16.935,N,31.364,K,A*30
$GPGGA,145855.00,5043.49157,N,00231.62034,E,1,07,1.10,24.8,M,45.8,M,,*6B
$GPGSA,A,3,28,13,05,24,20,30,15,,,,,,1.99,1.10,1.66*0C
$GPGSV,3,1,11,05,31,192,37,07,03,068,,08,06,020,,13,88,004,27*77
$GPGSV,3,2,11,15,51,293,22,17,02,123,,20,11,323,13,21,09,295,*72
$GPGSV,3,3,11,24,20,252,20,28,54,087,33,30,34,067,25*4C
$GPGLL,5043.49157,N,00231.62034,E,145855.00,A,A*6E
$GPRMC,145856.00,A,5043.48823,N,00231.61394,E,18.291,233.77,261218,,,A*54
$GPVTG,233.77,T,,M,18.291,N,33.874,K,A*37
$GPGGA,145856.00,5043.48823,N,00231.61394,E,1,07,1.10,24.3,M,45.8,M,,*62
$GPGSA,A,3,28,13,05,24,20,30,15,,,,,,1.99,1.10,1.66*0C
$GPGSV,3,1,11,05,31,192,39,07,03,068,,08,06,020,,13,88,004,27*79
$GPGSV,3,2,11,15,51,293,20,17,02,123,,20,11,323,13,21,09,295,17*76
$GPGSV,3,3,11,24,20,252,19,28,54,087,33,30,34,067,27*44
$GPGLL,5043.48823,N,00231.61394,E,145856.00,A,A*6C
$GPRMC,145857.00,A,5043.48525,N,00231.60727,E,18.388,235.51,261218,,,A*58
$GPVTG,235.51,T,,M,18.388,N,34.055,K,A*30
$GPGGA,145857.00,5043.48525,N,00231.60727,E,1,07,1.10,23.6,M,45.8,M,,*67
$GPGSA,A,3,28,13,05,24,20,30,15,,,,,,1.99,1.10,1.66*0C
$GPGSV,3,1,11,05,31,192,37,07,03,068,,08,06,020,,13,88,004,25*75
$GPGSV,3,2,11,15,51,293,21,17,02,123,,20,11,323,15,21,09,295,16*70
$GPGSV,3,3,11,24,20,252,17,28,54,087,33,30,34,067,30*4C
$GPGLL,5043.48525,N,00231.60727,E,145857.00,A,A*6B
$GPRMC,145858.00,A,5043.48241,N,00231.60078,E,17.670,235.37,261218,,,A*52
$GPVTG,235.37,T,,M,17.670,N,32.724,K,A*3A
$GPGGA,145858.00,5043.48241,N,00231.60078,E,1,07,1.10,23.4,M,45.8,M,,*62
$GPGSA,A,3,28,13,05,24,20,30,15,,,,,,1.99,1.10,1.66*0C
$GPGSV,3,1,11,05,31,192,34,07,03,068,,08,06,020,,13,88,004,23*70
$GPGSV,3,2,11,15,51,293,21,17,02,123,,20,11,323,18,21,09,295,17*7C
$GPGSV,3,3,11,24,20,252,17,28,54,087,33,30,34,067,29*44
$GPGLL,5043.48241,N,00231.60078,E,145858.00,A,A*6C
$GPRMC,145859.00,A,5043.47954,N,00231.59480,E,17.047,235.32,261218,,,A*5D
$GPVTG,235.32,T,,M,17.047,N,31.570,K,A*3D
$GPGGA,145859.00,5043.47954,N,00231.59480,E,1,08,1.08,23.4,M,45.8,M,,*6C
$GPGSA,A,3,28,13,05,24,20,30,15,21,,,,,1.90,1.08,1.56*0C
$GPGSV,3,1,11,05,31,192,31,07,03,068,,08,06,020,,13,88,004,24*72
$GPGSV,3,2,11,15,51,293,20,17,02,123,,20,11,323,21,21,09,295,19*79
$GPGSV,3,3,11,24,20,252,20,28,54,087,35,30,34,067,30*4E
$GPGLL,5043.47954,N,00231.59480,E,145859.00,A,A*64
$GPRMC,145900.00,A,5043.47694,N,00231.58908,E,15.968,237.55,261218,,,A*5A
$GPVTG,237.55,T,,M,15.968,N,29.573,K,A*32
$GPGGA,145900.00,5043.47694,N,00231.58908,E,1,08,1.08,23.4,M,45.8,M,,*6E
$GPGSA,A,3,28,13,05,24,20,30,15,21,,,,,1.90,1.08,1.56*0C
$GPGSV,3,1,11,05,31,192,29,07,03,068,17,08,06,020,17,13,88,004,23*7C
$GPGSV,3,2,11,15,51,293,20,17,02,123,,20,11,323,22,21,09,295,20*70
$GPGSV,3,3,11,24,20,252,22,28,54,087,34,30,34,067,30*4D
$GPGLL,5043.47694,N,00231.58908,E,145900.00,A,A*66
$GPRMC,145901.00,A,5043.47416,N,00231.58394,E,14.458,236.38,261218,,,A*59
$GPVTG,236.38,T,,M,14.458,N,26.776,K,A*3F
$GPGGA,145901.00,5043.47416,N,00231.58394,E,1,08,1.08,23.1,M,45.8,M,,*6D
$GPGSA,A,3,28,13,05,24,20,30,15,21,,,,,1.90,1.08,1.56*0C
$GPGSV,3,1,11,05,31,192,36,07,03,068,17,08,06,020,19,13,88,004,22*7D
$GPGSV,3,2,11,15,51,293,21,17,02,123,,20,11,323,25,21,09,295,20*76
$GPGSV,3,3,11,24,20,252,22,28,54,087,34,30,34,067,29*45
$GPGLL,5043.47416,N,00231.58394,E,145901.00,A,A*60
$GPRMC,145902.00,A,5043.47202,N,00231.57957,E,11.936,236.03,261218,,,A*5B
$GPVTG,236.03,T,,M,11.936,N,22.106,K,A*32
$GPGGA,145902.00,5043.47202,N,00231.57957,E,1,08,1.08,22.6,M,45.8,M,,*61
$GPGSA,A,3,28,13,05,24,20,30,15,21,,,,,1.90,1.08,1.56*0C
$GPGSV,3,1,11,05,31,192,36,07,03,068,19,08,06,020,20,13,88,004,22*79
$GPGSV,3,2,11,15,51,293,21,17,02,123,,20,11,323,26,21,09,295,20*75
$GPGSV,3,3,11,24,20,252,22,28,54,087,33,30,34,067,27*4C
$GPGLL,5043.47202,N,00231.57957,E,145902.00,A,A*6A
$GPRMC,145903.00,A,5043.47028,N,00231.57609,E,9.265,235.22,261218,,,A*60
$GPVTG,235.22,T,,M,9.265,N,17.158,K,A*0B
$GPGGA,145903.00,5043.47028,N,00231.57609,E,1,09,0.99,22.8,M,45.8,M,,*68
$GPGSA,A,3,28,13,05,24,08,20,30,15,21,,,,1.68,0.99,1.36*0C
$GPGSV,3,1,11,05,31,192,33,07,03,068,16,08,06,020,19,13,88,004,21*7A
$GPGSV,3,2,11,15,51,293,22,17,02,123,,20,11,323,26,21,09,295,23*75
$GPGSV,3,3,11,24,20,252,23,28,54,087,32,30,34,067,27*4C
$GPGLL,5043.47028,N,00231.57609,E,145903.00,A,A*65
$GPRMC,145904.00,A,5043.46866,N,00231.57293,E,8.960,236.26,261218,,,A*6B
$GPVTG,236.26,T,,M,8.960,N,16.595,K,A*07
$GPGGA,145904.00,5043.46866,N,00231.57293,E,1,09,0.99,22.9,M,45.8,M,,*6A
$GPGSA,A,3,28,13,05,24,08,20,30,15,21,,,,1.68,0.99,1.36*0C
$GPGSV,3,1,11,05,31,192,34,07,03,068,17,08,06,020,19,13,88,004,23*7E
$GPGSV,3,2,11,15,51,293,23,17,02,123,,20,11,323,26,21,09,295,24*73
$GPGSV,3,3,11,24,20,252,24,28,54,087,33,30,34,067,27*4A
$GPGLL,5043.46866,N,00231.57293,E,145904.00,A,A*66
$GPRMC,145905.00,A,5043.46693,N,00231.56930,E,10.798,235.35,261218,,,A*5C
$GPVTG,235.35,T,,M,10.798,N,19.998,K,A*38
$GPGGA,145905.00,5043.46693,N,00231.56930,E,1,09,0.99,22.8,M,45.8,M,,*6D
